[
    {
        "elevation": "49.0",
        "id": "354147",
        "latitude": "50.5169",
        "longitude": "-3.6652",
        "name": "West Ogwell",
        "region": "sw",
        "unitaryAuthArea": "Devon"
    },
    {
        "elevation": "135.0",
        "id": "354150",
        "latitude": "51.6388",
        "longitude": "-0.805",
        "name": "West Wycombe Park",
        "region": "se",
        "unitaryAuthArea": "Buckinghamshire"
    },
    {
        "elevation": "78.0",
        "id": "354152",
        "latitude": "51.2562",
        "longitude": "-2.1844",
        "name": "Westbury (Wiltshire)",
        "region": "sw",
        "unitaryAuthArea": "Wiltshire"
    },
    {
        "elevation": "5.0",
        "id": "354160",
        "latitude": "51.4982",
        "longitude": "-0.1323",
        "name": "Westminster",
        "region": "se",
        "unitaryAuthArea": "Greater London"
    },
    {
        "elevation": "69.0",
        "id": "354167",
        "latitude": "51.3262",
        "longitude": "-2.2709",
        "name": "Westwood Manor",
        "region": "sw",
        "unitaryAuthArea": "Wiltshire"
    },
    {
        "elevation": "28.0",
        "id": "354173",
        "latitude": "53.4475",
        "longitude": "-2.2546",
        "name": "Whalley Range",
        "region": "nw",
        "unitaryAuthArea": "Greater Manchester"
    },
    {
        "elevation": "239.0",
        "id": "354221",
        "latitude": "50.5745",
        "longitude": "-3.811",
        "name": "Widecombe In The Moor",
        "nationalPark": "Dartmoor National Park",
        "region": "sw",
        "unitaryAuthArea": "Devon"
    },
    {
        "elevation": "74.0",
        "id": "354227",
        "latitude": "52.7628",
        "longitude": "-2.9247",
        "name": "Wilcott",
        "region": "wm",
        "unitaryAuthArea": "Shropshire"
    },
    {
        "elevation": "83.0",
        "id": "354231",
        "latitude": "52.3852",
        "longitude": "-1.4624",
        "name": "Willenhall (Nr Coventry)",
        "region": "wm",
        "unitaryAuthArea": "West Midlands Conurbation"
    }
]
